[{"id": "qjnpkS8yZO8xcyEIy5OU9A", "alias": "girl-and-the-goat-chicago", "name": "Girl & the Goat", "image_url": "https://s3-media1.fl.yelpcdn.com/bphoto/ya6gjD4BPlxe7AKMj_5WsA/o.jpg", "is_closed": false, "url": "https://www.yelp.com/biz/girl-and-the-goat-chicago?adjust_creative=J3JkBAbRAtjtmJQiXmkMlw&utm_campaign=yelp_api_v3&utm_medium=api_v3_business_search&utm_source=J3JkBAbRAtjtmJQiXmkMlw", "review_count": 7964, "categories": [{"alias": "newamerican", "title": "American (New)"}, {"alias": "bakeries", "title": "Bakeries"}, {"alias": "coffee", "title": "Coffee & Tea"}], "rating": 4.5, "coordinates": {"latitude": 41.884176, "longitude": -87.6479440725005}, "transactions": [], "price": "$$$", "location": {"address1": "809 W Randolph St", "address2": "", "address3": "", "city": "Chicago", "zip_code": "60607", "country": "US", "state": "IL", "display_address": ["809 W Randolph St", "Chicago, IL 60607"]}, "phone": "+13124926262", "display_phone": "(312) 492-6262", "distance": 3396.525042772812}, {"id": "cKZNbMvoqJaUe7n6lf6i7w", "alias": "wildberry-pancakes-and-cafe-chicago-2", "name": "Wildberry Pancakes and Cafe", "image_url": "https://s3-media2.fl.yelpcdn.com/bphoto/9ZnC8R_MgeIKWV-5IedwNg/o.jpg", "is_closed": false, "url": "https://www.yelp.com/biz/wildberry-pancakes-and-cafe-chicago-2?adjust_creative=J3JkBAbRAtjtmJQiXmkMlw&utm_campaign=yelp_api_v3&utm_medium=api_v3_business_search&utm_source=J3JkBAbRAtjtmJQiXmkMlw", "review_count": 5971, "categories": [{"alias": "pancakes", "title": "Pancakes"}], "rating": 4.5, "coordinates": {"latitude": 41.884668, "longitude": -87.62288}, "transactions": ["pickup"], "price": "$$", "location": {"address1": "130 E Randolph St", "address2": "", "address3": "", "city": "Chicago", "zip_code": "60601", "country": "US", "state": "IL", "display_address": ["130 E Randolph St", "Chicago, IL 60601"]}, "phone": "+13129389777", "display_phone": "(312) 938-9777", "distance": 5082.221755403031}, {"id": "xoi7Cw7FoknAx5p880RtWQ", "alias": "au-cheval-chicago", "name": "Au Cheval", "image_url": "https://s3-media4.fl.yelpcdn.com/bphoto/a0yhvSJX_6i28iwS9egDFg/o.jpg", "is_closed": false, "url": "https://www.yelp.com/biz/au-cheval-chicago?adjust_creative=J3JkBAbRAtjtmJQiXmkMlw&utm_campaign=yelp_api_v3&utm_medium=api_v3_business_search&utm_source=J3JkBAbRAtjtmJQiXmkMlw", "review_count": 6009, "categories": [{"alias": "bars", "title": "Bars"}, {"alias": "burgers", "title": "Burgers"}, {"alias": "tradamerican", "title": "American (Traditional)"}], "rating": 4.5, "coordinates": {"latitude": 41.88466, "longitude": -87.647668}, "transactions": [], "price": "$$", "location": {"address1": "800 W Randolph St", "address2": "", "address3": "", "city": "Chicago", "zip_code": "60607", "country": "US", "state": "IL", "display_address": ["800 W Randolph St", "Chicago, IL 60607"]}, "phone": "+13129294580", "display_phone": "(312) 929-4580", "distance": 3376.5984269738638}, {"id": "boE4Ahsssqic7o5wQLI04w", "alias": "the-purple-pig-chicago", "name": "The Purple Pig", "image_url": "https://s3-media2.fl.yelpcdn.com/bphoto/Qf9YAh6piSujT5F1T6PALg/o.jpg", "is_closed": false, "url": "https://www.yelp.com/biz/the-purple-pig-chicago?adjust_creative=J3JkBAbRAtjtmJQiXmkMlw&utm_campaign=yelp_api_v3&utm_medium=api_v3_business_search&utm_source=J3JkBAbRAtjtmJQiXmkMlw", "review_count": 6524, "categories": [{"alias": "tapasmallplates", "title": "Tapas/Small Plates"}, {"alias": "mediterranean", "title": "Mediterranean"}, {"alias": "breakfast_brunch", "title": "Breakfast & Brunch"}], "rating": 4.0, "coordinates": {"latitude": 41.89101954311, "longitude": -87.6245617816512}, "transactions": [], "price": "$$", "location": {"address1": "500 N Michigan Ave", "address2": null, "address3": "", "city": "Chicago", "zip_code": "60611", "country": "US", "state": "IL", "display_address": ["500 N Michigan Ave", "Chicago, IL 60611"]}, "phone": "+13124641744", "display_phone": "(312) 464-1744", "distance": 4675.686177791884}, {"id": "AkcZ1fUyB3RocKLYGFu20Q", "alias": "art-institute-of-chicago-chicago-3", "name": "Art Institute of Chicago", "image_url": "https://s3-media2.fl.yelpcdn.com/bphoto/dJNIgnnwmQ7V1UIhXucfWA/o.jpg", "is_closed": false, "url": "https://www.yelp.com/biz/art-institute-of-chicago-chicago-3?adjust_creative=J3JkBAbRAtjtmJQiXmkMlw&utm_campaign=yelp_api_v3&utm_medium=api_v3_business_search&utm_source=J3JkBAbRAtjtmJQiXmkMlw", "review_count": 1666, "categories": [{"alias": "artschools", "title": "Art Schools"}, {"alias": "landmarks", "title": "Landmarks & Historical Buildings"}, {"alias": "artmuseums", "title": "Art Museums"}], "rating": 4.5, "coordinates": {"latitude": 41.8796, "longitude": -87.623713}, "transactions": [], "location": {"address1": "111 S Michigan Ave", "address2": "", "address3": "", "city": "Chicago", "zip_code": "60603", "country": "US", "state": "IL", "display_address": ["111 S Michigan Ave", "Chicago, IL 60603"]}, "phone": "+13124433600", "display_phone": "(312) 443-3600", "distance": 5300.4255940425155}, {"id": "LPwAwxEjetjdNh7Uadro3g", "alias": "smoque-bbq-chicago", "name": "Smoque BBQ", "image_url": "https://s3-media4.fl.yelpcdn.com/bphoto/T-oNCsrLiZc2lwrI3r9phQ/o.jpg", "is_closed": false, "url": "https://www.yelp.com/biz/smoque-bbq-chicago?adjust_creative=J3JkBAbRAtjtmJQiXmkMlw&utm_campaign=yelp_api_v3&utm_medium=api_v3_business_search&utm_source=J3JkBAbRAtjtmJQiXmkMlw", "review_count": 3960, "categories": [{"alias": "bbq", "title": "Barbeque"}], "rating": 4.5, "coordinates": {"latitude": 41.95021, "longitude": -87.72795}, "transactions": [], "price": "$$", "location": {"address1": "3800 N Pulaski Rd", "address2": "Ste 2", "address3": "", "city": "Chicago", "zip_code": "60641", "country": "US", "state": "IL", "display_address": ["3800 N Pulaski Rd", "Ste 2", "Chicago, IL 60641"]}, "phone": "+17735457427", "display_phone": "(773) 545-7427", "distance": 6499.895336284822}, {"id": "8vFJH_paXsMocmEO_KAa3w", "alias": "lou-malnatis-pizzeria-chicago", "name": "Lou Malnati's Pizzeria", "image_url": "https://s3-media1.fl.yelpcdn.com/bphoto/cv0OrGAkBn4qdFOm3zuFjQ/o.jpg", "is_closed": false, "url": "https://www.yelp.com/biz/lou-malnatis-pizzeria-chicago?adjust_creative=J3JkBAbRAtjtmJQiXmkMlw&utm_campaign=yelp_api_v3&utm_medium=api_v3_business_search&utm_source=J3JkBAbRAtjtmJQiXmkMlw", "review_count": 5273, "categories": [{"alias": "pizza", "title": "Pizza"}, {"alias": "italian", "title": "Italian"}, {"alias": "sandwiches", "title": "Sandwiches"}], "rating": 4.0, "coordinates": {"latitude": 41.890357, "longitude": -87.633704}, "transactions": ["delivery", "pickup"], "price": "$$", "location": {"address1": "439 N Wells St", "address2": "", "address3": "", "city": "Chicago", "zip_code": "60654", "country": "US", "state": "IL", "display_address": ["439 N Wells St", "Chicago, IL 60654"]}, "phone": "+13128289800", "display_phone": "(312) 828-9800", "distance": 4000.9990531720227}, {"id": "pbEiXam9YJL3neCYHGwLUA", "alias": "alinea-chicago", "name": "Alinea", "image_url": "https://s3-media2.fl.yelpcdn.com/bphoto/cj89YwaTL0Ma1Mx3xJk7Iw/o.jpg", "is_closed": false, "url": "https://www.yelp.com/biz/alinea-chicago?adjust_creative=J3JkBAbRAtjtmJQiXmkMlw&utm_campaign=yelp_api_v3&utm_medium=api_v3_business_search&utm_source=J3JkBAbRAtjtmJQiXmkMlw", "review_count": 1968, "categories": [{"alias": "newamerican", "title": "American (New)"}, {"alias": "modern_european", "title": "Modern European"}], "rating": 4.5, "coordinates": {"latitude": 41.9134194160823, "longitude": -87.6482384681229}, "transactions": [], "price": "$$$$", "location": {"address1": "1723 N Halsted St", "address2": "", "address3": "", "city": "Chicago", "zip_code": "60614", "country": "US", "state": "IL", "display_address": ["1723 N Halsted St", "Chicago, IL 60614"]}, "phone": "+13128670110", "display_phone": "(312) 867-0110", "distance": 2610.289488504425}, {"id": "pVPyt3TugMd8FW5LGznkQQ", "alias": "kumas-corner-belmont-chicago", "name": "Kuma's Corner - Belmont", "image_url": "https://s3-media2.fl.yelpcdn.com/bphoto/tczjU01MzXiOMPKY1CEQ0Q/o.jpg", "is_closed": false, "url": "https://www.yelp.com/biz/kumas-corner-belmont-chicago?adjust_creative=J3JkBAbRAtjtmJQiXmkMlw&utm_campaign=yelp_api_v3&utm_medium=api_v3_business_search&utm_source=J3JkBAbRAtjtmJQiXmkMlw", "review_count": 4969, "categories": [{"alias": "pubs", "title": "Pubs"}, {"alias": "burgers", "title": "Burgers"}], "rating": 4.0, "coordinates": {"latitude": 41.939640045166, "longitude": -87.7004470825195}, "transactions": ["delivery"], "price": "$$", "location": {"address1": "2900 W Belmont Ave", "address2": null, "address3": "", "city": "Chicago", "zip_code": "60618", "country": "US", "state": "IL", "display_address": ["2900 W Belmont Ave", "Chicago, IL 60618"]}, "phone": "+17736048769", "display_phone": "(773) 604-8769", "distance": 4258.440036134816}, {"id": "-sdMTRmgExufOk6STZFi9w", "alias": "little-goat-diner-chicago-4", "name": "Little Goat Diner", "image_url": "https://s3-media3.fl.yelpcdn.com/bphoto/FEdL5JcbVf5NFEB3s5S8Mg/o.jpg", "is_closed": false, "url": "https://www.yelp.com/biz/little-goat-diner-chicago-4?adjust_creative=J3JkBAbRAtjtmJQiXmkMlw&utm_campaign=yelp_api_v3&utm_medium=api_v3_business_search&utm_source=J3JkBAbRAtjtmJQiXmkMlw", "review_count": 4161, "categories": [{"alias": "diners", "title": "Diners"}], "rating": 4.0, "coordinates": {"latitude": 41.8846460590586, "longitude": -87.6484126982138}, "transactions": [], "price": "$$", "location": {"address1": "820 W Randolph St", "address2": "", "address3": "", "city": "Chicago", "zip_code": "60607", "country": "US", "state": "IL", "display_address": ["820 W Randolph St", "Chicago, IL 60607"]}, "phone": "+13128883455", "display_phone": "(312) 888-3455", "distance": 3332.4445948347225}, {"id": "apyIymDFbUK7u-Y3V5kmkA", "alias": "bavettes-bar-and-boeuf-chicago", "name": "Bavette's Bar & Boeuf", "image_url": "https://s3-media3.fl.yelpcdn.com/bphoto/UchBxzwVjn_XJ-c8xj2_9w/o.jpg", "is_closed": false, "url": "https://www.yelp.com/biz/bavettes-bar-and-boeuf-chicago?adjust_creative=J3JkBAbRAtjtmJQiXmkMlw&utm_campaign=yelp_api_v3&utm_medium=api_v3_business_search&utm_source=J3JkBAbRAtjtmJQiXmkMlw", "review_count": 2092, "categories": [{"alias": "steak", "title": "Steakhouses"}, {"alias": "seafood", "title": "Seafood"}, {"alias": "bars", "title": "Bars"}], "rating": 4.5, "coordinates": {"latitude": 41.8892796234574, "longitude": -87.6348227262497}, "transactions": [], "price": "$$$", "location": {"address1": "218 W Kinzie St", "address2": "", "address3": "", "city": "Chicago", "zip_code": "60654", "country": "US", "state": "IL", "display_address": ["218 W Kinzie St", "Chicago, IL 60654"]}, "phone": "+13126248154", "display_phone": "(312) 624-8154", "distance": 3968.647508362347}, {"id": "y8jVBaHh8ntYkVqDXpsi1Q", "alias": "cafe-ba-ba-reeba-chicago-3", "name": "Cafe Ba-Ba-Reeba!", "image_url": "https://s3-media2.fl.yelpcdn.com/bphoto/jMNRpAcS1sPTAcSSTfCDrg/o.jpg", "is_closed": false, "url": "https://www.yelp.com/biz/cafe-ba-ba-reeba-chicago-3?adjust_creative=J3JkBAbRAtjtmJQiXmkMlw&utm_campaign=yelp_api_v3&utm_medium=api_v3_business_search&utm_source=J3JkBAbRAtjtmJQiXmkMlw", "review_count": 3659, "categories": [{"alias": "spanish", "title": "Spanish"}, {"alias": "tapas", "title": "Tapas Bars"}, {"alias": "venues", "title": "Venues & Event Spaces"}], "rating": 4.0, "coordinates": {"latitude": 41.918984, "longitude": -87.648687}, "transactions": ["delivery", "pickup"], "price": "$$", "location": {"address1": "2024 N Halsted St", "address2": "", "address3": "", "city": "Chicago", "zip_code": "60614", "country": "US", "state": "IL", "display_address": ["2024 N Halsted St", "Chicago, IL 60614"]}, "phone": "+17739355000", "display_phone": "(773) 935-5000", "distance": 2855.2746085318017}, {"id": "rp17Dfjdh7JR4GGZwj6nqg", "alias": "portillos-hot-dogs-chicago-4", "name": "Portillo's Hot Dogs", "image_url": "https://s3-media2.fl.yelpcdn.com/bphoto/-9jRmNrw7QgjcUn_EXVsEA/o.jpg", "is_closed": false, "url": "https://www.yelp.com/biz/portillos-hot-dogs-chicago-4?adjust_creative=J3JkBAbRAtjtmJQiXmkMlw&utm_campaign=yelp_api_v3&utm_medium=api_v3_business_search&utm_source=J3JkBAbRAtjtmJQiXmkMlw", "review_count": 4797, "categories": [{"alias": "hotdog", "title": "Hot Dogs"}, {"alias": "salad", "title": "Salad"}, {"alias": "burgers", "title": "Burgers"}], "rating": 4.0, "coordinates": {"latitude": 41.89366, "longitude": -87.63157}, "transactions": ["delivery", "pickup"], "price": "$", "location": {"address1": "100 W Ontario", "address2": "", "address3": "", "city": "Chicago", "zip_code": "60610", "country": "US", "state": "IL", "display_address": ["100 W Ontario", "Chicago, IL 60610"]}, "phone": "+13125878910", "display_phone": "(312) 587-8910", "distance": 4040.796149927543}, {"id": "ziIfrqtyupmeNlPAOx6jTw", "alias": "quartino-ristorante-chicago", "name": "Quartino Ristorante", "image_url": "https://s3-media4.fl.yelpcdn.com/bphoto/uTY0QtPaluKkLoh29UPvBw/o.jpg", "is_closed": false, "url": "https://www.yelp.com/biz/quartino-ristorante-chicago?adjust_creative=J3JkBAbRAtjtmJQiXmkMlw&utm_campaign=yelp_api_v3&utm_medium=api_v3_business_search&utm_source=J3JkBAbRAtjtmJQiXmkMlw", "review_count": 4329, "categories": [{"alias": "italian", "title": "Italian"}, {"alias": "wine_bars", "title": "Wine Bars"}], "rating": 4.0, "coordinates": {"latitude": 41.8934479679332, "longitude": -87.6283662020996}, "transactions": ["delivery"], "price": "$$", "location": {"address1": "626 N State St", "address2": null, "address3": "", "city": "Chicago", "zip_code": "60654", "country": "US", "state": "IL", "display_address": ["626 N State St", "Chicago, IL 60654"]}, "phone": "+13126985000", "display_phone": "(312) 698-5000", "distance": 4290.83829114424}, {"id": "DXwSYgiXqIVNdO9dazel6w", "alias": "pequods-pizzeria-chicago", "name": "Pequod's Pizzeria", "image_url": "https://s3-media2.fl.yelpcdn.com/bphoto/jlB3XA4XnnoU6omD9TSk5Q/o.jpg", "is_closed": false, "url": "https://www.yelp.com/biz/pequods-pizzeria-chicago?adjust_creative=J3JkBAbRAtjtmJQiXmkMlw&utm_campaign=yelp_api_v3&utm_medium=api_v3_business_search&utm_source=J3JkBAbRAtjtmJQiXmkMlw", "review_count": 5185, "categories": [{"alias": "pizza", "title": "Pizza"}], "rating": 4.0, "coordinates": {"latitude": 41.92187, "longitude": -87.664486}, "transactions": ["delivery"], "price": "$$", "location": {"address1": "2207 N Clybourn Ave", "address2": "", "address3": "", "city": "Chicago", "zip_code": "60614", "country": "US", "state": "IL", "display_address": ["2207 N Clybourn Ave", "Chicago, IL 60614"]}, "phone": "+17733271512", "display_phone": "(773) 327-1512", "distance": 2158.7084581522413}, {"id": "WBU0yq9J8qiYQfI_fh2P1Q", "alias": "crisp-chicago", "name": "Crisp", "image_url": "https://s3-media3.fl.yelpcdn.com/bphoto/1PSFIM80BpKyOYK-7CFjrQ/o.jpg", "is_closed": false, "url": "https://www.yelp.com/biz/crisp-chicago?adjust_creative=J3JkBAbRAtjtmJQiXmkMlw&utm_campaign=yelp_api_v3&utm_medium=api_v3_business_search&utm_source=J3JkBAbRAtjtmJQiXmkMlw", "review_count": 2879, "categories": [{"alias": "korean", "title": "Korean"}, {"alias": "chicken_wings", "title": "Chicken Wings"}], "rating": 4.5, "coordinates": {"latitude": 41.9361214592879, "longitude": -87.6444210345452}, "transactions": [], "price": "$$", "location": {"address1": "2940 N Broadway Ave", "address2": "", "address3": "", "city": "Chicago", "zip_code": "60657", "country": "US", "state": "IL", "display_address": ["2940 N Broadway Ave", "Chicago, IL 60657"]}, "phone": "+17736977610", "display_phone": "(773) 697-7610", "distance": 4411.791307760452}, {"id": "2tKMs0DbdxPSl2JeCJUEKw", "alias": "joes-seafood-prime-steak-and-stone-crab-chicago", "name": "Joe's Seafood, Prime Steak & Stone Crab", "image_url": "https://s3-media4.fl.yelpcdn.com/bphoto/FPYafanrI1GVRAhtgZ8Oow/o.jpg", "is_closed": false, "url": "https://www.yelp.com/biz/joes-seafood-prime-steak-and-stone-crab-chicago?adjust_creative=J3JkBAbRAtjtmJQiXmkMlw&utm_campaign=yelp_api_v3&utm_medium=api_v3_business_search&utm_source=J3JkBAbRAtjtmJQiXmkMlw", "review_count": 2224, "categories": [{"alias": "seafood", "title": "Seafood"}, {"alias": "steak", "title": "Steakhouses"}], "rating": 4.5, "coordinates": {"latitude": 41.8918195, "longitude": -87.6261787}, "transactions": ["delivery", "pickup"], "price": "$$$", "location": {"address1": "60 E Grand Ave", "address2": "", "address3": null, "city": "Chicago", "zip_code": "60611", "country": "US", "state": "IL", "display_address": ["60 E Grand Ave", "Chicago, IL 60611"]}, "phone": "+13123795637", "display_phone": "(312) 379-5637", "distance": 4553.711534569594}, {"id": "jGiKIJCVLZHXQDSNnSLPsw", "alias": "xoco-chicago", "name": "Xoco", "image_url": "https://s3-media2.fl.yelpcdn.com/bphoto/SMy6UI6dloXPuaIUfXI1Jg/o.jpg", "is_closed": false, "url": "https://www.yelp.com/biz/xoco-chicago?adjust_creative=J3JkBAbRAtjtmJQiXmkMlw&utm_campaign=yelp_api_v3&utm_medium=api_v3_business_search&utm_source=J3JkBAbRAtjtmJQiXmkMlw", "review_count": 3472, "categories": [{"alias": "mexican", "title": "Mexican"}, {"alias": "breakfast_brunch", "title": "Breakfast & Brunch"}, {"alias": "sandwiches", "title": "Sandwiches"}], "rating": 4.0, "coordinates": {"latitude": 41.890969, "longitude": -87.630776}, "transactions": ["pickup"], "price": "$$", "location": {"address1": "449 N Clark St", "address2": "", "address3": "", "city": "Chicago", "zip_code": "60654", "country": "US", "state": "IL", "display_address": ["449 N Clark St", "Chicago, IL 60654"]}, "phone": "+13126611434", "display_phone": "(312) 661-1434", "distance": 4196.9880258606}, {"id": "ULEy88tbRkbwnDOOBdUCUQ", "alias": "mollys-cupcakes-chicago", "name": "Molly's Cupcakes", "image_url": "https://s3-media3.fl.yelpcdn.com/bphoto/qY9JDChMGf-vWVUpE7zncw/o.jpg", "is_closed": false, "url": "https://www.yelp.com/biz/mollys-cupcakes-chicago?adjust_creative=J3JkBAbRAtjtmJQiXmkMlw&utm_campaign=yelp_api_v3&utm_medium=api_v3_business_search&utm_source=J3JkBAbRAtjtmJQiXmkMlw", "review_count": 2683, "categories": [{"alias": "desserts", "title": "Desserts"}, {"alias": "bakeries", "title": "Bakeries"}, {"alias": "cupcakes", "title": "Cupcakes"}], "rating": 4.0, "coordinates": {"latitude": 41.9288051, "longitude": -87.6425736}, "transactions": ["delivery", "pickup"], "price": "$$", "location": {"address1": "2536 N Clark St", "address2": "", "address3": "", "city": "Chicago", "zip_code": "60614", "country": "US", "state": "IL", "display_address": ["2536 N Clark St", "Chicago, IL 60614"]}, "phone": "+17738837220", "display_phone": "(773) 883-7220", "distance": 3918.592204438793}, {"id": "2DfcXGtDv7T_rnvl4lHzaQ", "alias": "millennium-park-chicago", "name": "Millennium Park", "image_url": "https://s3-media4.fl.yelpcdn.com/bphoto/EusnY115a7MjF-fRKvNqDQ/o.jpg", "is_closed": false, "url": "https://www.yelp.com/biz/millennium-park-chicago?adjust_creative=J3JkBAbRAtjtmJQiXmkMlw&utm_campaign=yelp_api_v3&utm_medium=api_v3_business_search&utm_source=J3JkBAbRAtjtmJQiXmkMlw", "review_count": 1179, "categories": [{"alias": "parks", "title": "Parks"}], "rating": 4.5, "coordinates": {"latitude": 41.88339, "longitude": -87.6218446}, "transactions": [], "location": {"address1": "201 E Randolph St", "address2": "", "address3": "", "city": "Chicago", "zip_code": "60602", "country": "US", "state": "IL", "display_address": ["201 E Randolph St", "Chicago, IL 60602"]}, "phone": "+13127421168", "display_phone": "(312) 742-1168", "distance": 5223.3300002387405}]